{
    "52.110897-19.951117": {
        "lat": 52.110897,
        "lon": 19.951117,
        "name": "\u0141owicz",
        "teryt": "1005"
    },
    "49.2434214-20.007121": {
        "lat": 49.2434214,
        "lon": 20.007121,
        "name": "Hala G\u0105sienicowa",
        "teryt": "1217"
    },
    "51.900749-19.60659": {
        "lat": 51.900749,
        "lon": 19.60659,
        "name": "Stryk\u00f3w",
        "teryt": "1020"
    },
    "51.965321-19.720556": {
        "lat": 51.965321,
        "lon": 19.720556,
        "name": "G\u0142owno",
        "teryt": "1008"
    },
    "51.959496-20.143276": {
        "lat": 51.959496,
        "lon": 20.143276,
        "name": "Skierniewice",
        "teryt": "1063"
    },
    "54.50721-18.53709": {
        "lat": 54.50721,
        "lon": 18.53709,
        "name": "Gdynia",
        "teryt": "2262"
    }
}
