{
    "52.110897-19.951117": {
        "lat": 52.110897,
        "lon": 19.951117,
        "name": "\u0141owicz",
        "teryt": "1005"
    },
    "49.2434214-20.007121": {
        "lat": 49.2434214,
        "lon": 20.007121,
        "name": "Hala G\u0105sienicowa",
        "teryt": "1217"
    },
    "51.900749-19.60659": {
        "lat": 51.900749,
        "lon": 19.60659,
        "name": "Stryk\u00f3w",
        "teryt": "1020"
    },
    "51.965321-19.720556": {
        "lat": 51.965321,
        "lon": 19.720556,
        "name": "G\u0142owno",
        "teryt": "1008"
    },
    "51.959496-20.143276": {
        "lat": 51.959496,
        "lon": 20.143276,
        "name": "Skierniewice",
        "teryt": "1063"
    },
    "54.50721-18.53709": {
        "lat": 54.50721,
        "lon": 18.53709,
        "name": "Gdynia",
        "teryt": "2262"
    },
    "54.440849-18.564291": {
        "lat": 54.440849,
        "lon": 18.564291,
        "name": "Sopot",
        "teryt": "2264"
    },
    "52.214245-18.258614": {
        "lat": 52.214245,
        "lon": 18.258614,
        "name": "Konin",
        "teryt": "3062"
    },
    "53.335571-15.045049": {
        "lat": 53.335571,
        "lon": 15.045049,
        "name": "Stargard",
        "teryt": "3214"
    },
    "51.366142-19.372007": {
        "lat": 51.366142,
        "lon": 19.372007,
        "name": "Be\u0142chat\u00f3w",
        "teryt": "1001"
    },
    "50.288277-21.42617": {
        "lat": 50.288277,
        "lon": 21.42617,
        "name": "Mielec",
        "teryt": "1811"
    },
    "50.293079-18.675501": {
        "lat": 50.293079,
        "lon": 18.675501,
        "name": "Gliwice",
        "teryt": "2466"
    }
}
