{
    "49.2434214-20.007121": {
        "lat": 49.2434214,
        "lon": 20.007121,
        "name": "Hala G\u0105sienicowa",
        "teryt": "1217"
    },
    "49.743271-21.471342": {
        "lat": 49.743271,
        "lon": 21.471342,
        "name": "Jas\u0142o",
        "teryt": "1805"
    },
    "49.749935-18.643164": {
        "lat": 49.749935,
        "lon": 18.643164,
        "name": "Cieszyn",
        "teryt": "2403"
    },
    "49.95369-18.593918": {
        "lat": 49.95369,
        "lon": 18.593918,
        "name": "Jastrz\u0119bie-Zdr\u00f3j",
        "teryt": "2467"
    },
    "50.03574-19.228319": {
        "lat": 50.03574,
        "lon": 19.228319,
        "name": "O\u015bwi\u0119cim",
        "teryt": "1213"
    },
    "50.094852-18.541618": {
        "lat": 50.094852,
        "lon": 18.541618,
        "name": "Rybnik",
        "teryt": "2473"
    },
    "50.127071-18.982397": {
        "lat": 50.127071,
        "lon": 18.982397,
        "name": "Tychy",
        "teryt": "2477"
    },
    "50.20097-19.276308": {
        "lat": 50.20097,
        "lon": 19.276308,
        "name": "Jaworzno",
        "teryt": "2468"
    },
    "50.236713-19.142132": {
        "lat": 50.236713,
        "lon": 19.142132,
        "name": "Mys\u0142owice",
        "teryt": "2470"
    },
    "50.2784-19.564463": {
        "lat": 50.2784,
        "lon": 19.564463,
        "name": "Olkusz",
        "teryt": "1212"
    },
    "50.282967-19.138803": {
        "lat": 50.282967,
        "lon": 19.138803,
        "name": "Sosnowiec",
        "teryt": "2475"
    },
    "50.288277-21.42617": {
        "lat": 50.288277,
        "lon": 21.42617,
        "name": "Mielec",
        "teryt": "1811"
    },
    "50.293079-18.675501": {
        "lat": 50.293079,
        "lon": 18.675501,
        "name": "Gliwice",
        "teryt": "2466"
    },
    "50.301449-18.952641": {
        "lat": 50.301449,
        "lon": 18.952641,
        "name": "Chorz\u00f3w",
        "teryt": "2463"
    },
    "50.304588-18.782841": {
        "lat": 50.304588,
        "lon": 18.782841,
        "name": "Zabrze",
        "teryt": "2478"
    },
    "50.306297-19.028542": {
        "lat": 50.306297,
        "lon": 19.028542,
        "name": "Siemianowice \u015al\u0105skie",
        "teryt": "2474"
    },
    "50.313473-18.85181": {
        "lat": 50.313473,
        "lon": 18.85181,
        "name": "Ruda \u015al\u0105ska",
        "teryt": "2472"
    },
    "50.323124-19.135889": {
        "lat": 50.323124,
        "lon": 19.135889,
        "name": "B\u0119dzin",
        "teryt": "2401"
    },
    "50.344536-18.205732": {
        "lat": 50.344536,
        "lon": 18.205732,
        "name": "K\u0119dzierzyn-Ko\u017ale",
        "teryt": "1603"
    },
    "50.348438-18.929209": {
        "lat": 50.348438,
        "lon": 18.929209,
        "name": "Bytom",
        "teryt": "2462"
    },
    "50.350155-19.295956": {
        "lat": 50.350155,
        "lon": 19.295956,
        "name": "D\u0105browa G\u00f3rnicza",
        "teryt": "2465"
    },
    "50.490475-19.423189": {
        "lat": 50.490475,
        "lon": 19.423189,
        "name": "Zawiercie",
        "teryt": "2416"
    },
    "50.568844-21.673496": {
        "lat": 50.568844,
        "lon": 21.673496,
        "name": "Tarnobrzeg",
        "teryt": "1864"
    },
    "50.770241-16.275093": {
        "lat": 50.770241,
        "lon": 16.275093,
        "name": "Wa\u0142brzych",
        "teryt": "0265"
    },
    "50.842472-16.48987": {
        "lat": 50.842472,
        "lon": 16.48987,
        "name": "\u015awidnica",
        "teryt": "0219"
    },
    "51.047966-21.061083": {
        "lat": 51.047966,
        "lon": 21.061083,
        "name": "Starachowice",
        "teryt": "2611"
    },
    "51.132957-23.474676": {
        "lat": 51.132957,
        "lon": 23.474676,
        "name": "Che\u0142m",
        "teryt": "0603"
    },
    "51.221748-22.694424": {
        "lat": 51.221748,
        "lon": 22.694424,
        "name": "\u015awidnik",
        "teryt": "0617"
    },
    "51.366142-19.372007": {
        "lat": 51.366142,
        "lon": 19.372007,
        "name": "Be\u0142chat\u00f3w",
        "teryt": "1001"
    },
    "51.39954-16.203686": {
        "lat": 51.39954,
        "lon": 16.203686,
        "name": "Lubin",
        "teryt": "0211"
    },
    "51.400059-21.158253": {
        "lat": 51.400059,
        "lon": 21.158253,
        "name": "Radom",
        "teryt": "1425"
    },
    "51.416817-21.972067": {
        "lat": 51.416817,
        "lon": 21.972067,
        "name": "Pu\u0142awy",
        "teryt": "0614"
    },
    "51.531742-20.010971": {
        "lat": 51.531742,
        "lon": 20.010971,
        "name": "Tomasz\u00f3w Mazowiecki",
        "teryt": "1016"
    },
    "51.594418-18.73288": {
        "lat": 51.594418,
        "lon": 18.73288,
        "name": "Sieradz",
        "teryt": "1014"
    },
    "51.638988-15.142102": {
        "lat": 51.638988,
        "lon": 15.142102,
        "name": "\u017bary",
        "teryt": "0811"
    },
    "51.652863-17.810442": {
        "lat": 51.652863,
        "lon": 17.810442,
        "name": "Ostr\u00f3w Wielkopolski",
        "teryt": "3017"
    },
    "51.662766-16.087492": {
        "lat": 51.662766,
        "lon": 16.087492,
        "name": "G\u0142og\u00f3w",
        "teryt": "0203"
    },
    "51.663696-19.356848": {
        "lat": 51.663696,
        "lon": 19.356848,
        "name": "Pabianice",
        "teryt": "1008"
    },
    "51.80328-15.721497": {
        "lat": 51.80328,
        "lon": 15.721497,
        "name": "Nowa S\u00f3l",
        "teryt": "0804"
    },
    "51.900749-19.60659": {
        "lat": 51.900749,
        "lon": 19.60659,
        "name": "Stryk\u00f3w",
        "teryt": "1020"
    },
    "51.959496-20.143276": {
        "lat": 51.959496,
        "lon": 20.143276,
        "name": "Skierniewice",
        "teryt": "1063"
    },
    "51.965321-19.720556": {
        "lat": 51.965321,
        "lon": 19.720556,
        "name": "G\u0142owno",
        "teryt": "1008"
    },
    "52.02869-23.125656": {
        "lat": 52.02869,
        "lon": 23.125656,
        "name": "Bia\u0142a Podlaska",
        "teryt": "0601"
    },
    "52.049187-20.448217": {
        "lat": 52.049187,
        "lon": 20.448217,
        "name": "\u017byrard\u00f3w",
        "teryt": "1438"
    },
    "52.066494-21.018738": {
        "lat": 52.066494,
        "lon": 21.018738,
        "name": "Piaseczno",
        "teryt": "1418"
    },
    "52.110344-21.266142": {
        "lat": 52.110344,
        "lon": 21.266142,
        "name": "Otwock",
        "teryt": "1417"
    },
    "52.110897-19.951117": {
        "lat": 52.110897,
        "lon": 19.951117,
        "name": "\u0141owicz",
        "teryt": "1005"
    },
    "52.159092-20.817156": {
        "lat": 52.159092,
        "lon": 20.817156,
        "name": "Pruszk\u00f3w",
        "teryt": "1421"
    },
    "52.180702-21.556147": {
        "lat": 52.180702,
        "lon": 21.556147,
        "name": "Mi\u0144sk Mazowiecki",
        "teryt": "1412"
    },
    "52.214245-18.258614": {
        "lat": 52.214245,
        "lon": 18.258614,
        "name": "Konin",
        "teryt": "3062"
    },
    "52.228909-20.240622": {
        "lat": 52.228909,
        "lon": 20.240622,
        "name": "Sochaczew",
        "teryt": "1428"
    },
    "52.34547-21.238939": {
        "lat": 52.34547,
        "lon": 21.238939,
        "name": "Wo\u0142omin",
        "teryt": "1434"
    },
    "52.410339-20.918337": {
        "lat": 52.410339,
        "lon": 20.918337,
        "name": "Legionowo",
        "teryt": "1408"
    },
    "52.529175-17.598948": {
        "lat": 52.529175,
        "lon": 17.598948,
        "name": "Gniezno",
        "teryt": "3003"
    },
    "52.659752-19.077988": {
        "lat": 52.659752,
        "lon": 19.077988,
        "name": "W\u0142oc\u0142awek",
        "teryt": "0464"
    },
    "52.795612-18.261868": {
        "lat": 52.795612,
        "lon": 18.261868,
        "name": "Inowroc\u0142aw",
        "teryt": "0407"
    },
    "52.880428-20.614288": {
        "lat": 52.880428,
        "lon": 20.614288,
        "name": "Ciechan\u00f3w",
        "teryt": "1402"
    },
    "53.122929-18.004641": {
        "lat": 53.122929,
        "lon": 18.004641,
        "name": "Bydgoszcz",
        "teryt": "0461"
    },
    "53.180416-22.077534": {
        "lat": 53.180416,
        "lon": 22.077534,
        "name": "\u0141om\u017ca",
        "teryt": "2007"
    },
    "53.335571-15.045049": {
        "lat": 53.335571,
        "lon": 15.045049,
        "name": "Stargard",
        "teryt": "3214"
    },
    "53.486099-18.75832": {
        "lat": 53.486099,
        "lon": 18.75832,
        "name": "Grudzi\u0105dz",
        "teryt": "0462"
    },
    "53.781498-20.486609": {
        "lat": 53.781498,
        "lon": 20.486609,
        "name": "Olsztyn",
        "teryt": "2814"
    },
    "53.825363-22.363373": {
        "lat": 53.825363,
        "lon": 22.363373,
        "name": "E\u0142k",
        "teryt": "2805"
    },
    "54.036972-19.030985": {
        "lat": 54.036972,
        "lon": 19.030985,
        "name": "Malbork",
        "teryt": "2209"
    },
    "54.087341-18.800741": {
        "lat": 54.087341,
        "lon": 18.800741,
        "name": "Tczew",
        "teryt": "2214"
    },
    "54.440849-18.564291": {
        "lat": 54.440849,
        "lon": 18.564291,
        "name": "Sopot",
        "teryt": "2264"
    },
    "54.466702-17.034426": {
        "lat": 54.466702,
        "lon": 17.034426,
        "name": "S\u0142upsk",
        "teryt": "2212"
    },
    "54.50721-18.53709": {
        "lat": 54.50721,
        "lon": 18.53709,
        "name": "Gdynia",
        "teryt": "2262"
    },
    "54.577831-18.399582": {
        "lat": 54.577831,
        "lon": 18.399582,
        "name": "Rumia",
        "teryt": "2215"
    },
    "54.601578-18.236614": {
        "lat": 54.601578,
        "lon": 18.236614,
        "name": "Wejherowo",
        "teryt": "2215"
    }
}
