{
    "12295": {
        "lat": 53.129879,
        "lon": 23.169956,
        "name": "Bia\u0142ystok",
        "teryt": "2061"
    },
    "12600": {
        "lat": 49.821877,
        "lon": 19.047007,
        "name": "Bielsko-Bia\u0142a",
        "teryt": "2461"
    },
    "12235": {
        "lat": 53.695099,
        "lon": 17.560205,
        "name": "Chojnice",
        "teryt": "2202"
    },
    "12550": {
        "lat": 50.809711,
        "lon": 19.122316,
        "name": "Cz\u0119stochowa",
        "teryt": "2464"
    },
    "12160": {
        "lat": 54.170792,
        "lon": 19.404793,
        "name": "Elbl\u0105g",
        "teryt": "2861"
    },
    "12155": {
        "lat": 54.349365,
        "lon": 18.656324,
        "name": "Gda\u0144sk",
        "teryt": "2261"
    },
    "12300": {
        "lat": 52.729179,
        "lon": 15.240283,
        "name": "Gorz\u00f3w",
        "teryt": "0861"
    },
    "12135": {
        "lat": 54.607689,
        "lon": 18.801825,
        "name": "Hel",
        "teryt": "2211"
    },
    "12500": {
        "lat": 50.901768,
        "lon": 15.733878,
        "name": "Jelenia G\u00f3ra",
        "teryt": "0261"
    },
    "12435": {
        "lat": 51.762714,
        "lon": 18.09094,
        "name": "Kalisz",
        "teryt": "3061"
    },
    "12650": {
        "lat": 49.2318,
        "lon": 19.9816,
        "name": "Kasprowy Wierch",
        "teryt": "1217"
    },
    "12560": {
        "lat": 50.256905,
        "lon": 19.023249,
        "name": "Katowice",
        "teryt": "2469"
    },
    "12185": {
        "lat": 54.0788,
        "lon": 21.370291,
        "name": "K\u0119trzyn",
        "teryt": "2808"
    },
    "12570": {
        "lat": 50.869804,
        "lon": 20.633692,
        "name": "Kielce",
        "teryt": "2661"
    },
    "12520": {
        "lat": 50.434372,
        "lon": 16.65733,
        "name": "K\u0142odzko",
        "teryt": "0208"
    },
    "12345": {
        "lat": 52.196339,
        "lon": 18.638342,
        "name": "Ko\u0142o",
        "teryt": "3009"
    },
    "12100": {
        "lat": 54.181225,
        "lon": 15.558957,
        "name": "Ko\u0142obrzeg",
        "teryt": "3208"
    },
    "12105": {
        "lat": 54.190334,
        "lon": 16.187447,
        "name": "Koszalin",
        "teryt": "3261"
    },
    "12488": {
        "lat": 51.583328,
        "lon": 21.549999,
        "name": "Kozienice",
        "teryt": "1407"
    },
    "12566": {
        "lat": 50.049686,
        "lon": 19.955626,
        "name": "Krak\u00f3w",
        "teryt": "1261"
    },
    "12670": {
        "lat": 49.69371,
        "lon": 21.769724,
        "name": "Krosno",
        "teryt": "1861"
    },
    "12415": {
        "lat": 51.20969,
        "lon": 16.175125,
        "name": "Legnica",
        "teryt": "0262"
    },
    "12690": {
        "lat": 49.47084,
        "lon": 22.3314,
        "name": "Lesko",
        "teryt": "1821"
    },
    "12418": {
        "lat": 51.842659,
        "lon": 16.577814,
        "name": "Leszno",
        "teryt": "3063"
    },
    "12125": {
        "lat": 54.541073,
        "lon": 17.750011,
        "name": "L\u0119bork",
        "teryt": "2208"
    },
    "12495": {
        "lat": 51.246181,
        "lon": 22.561283,
        "name": "Lublin",
        "teryt": "0663"
    },
    "12120": {
        "lat": 54.758766,
        "lon": 17.557657,
        "name": "\u0141eba",
        "teryt": "2208"
    },
    "12465": {
        "lat": 51.775375,
        "lon": 19.456387,
        "name": "\u0141\u00f3d\u017a",
        "teryt": "1061"
    },
    "12280": {
        "lat": 53.783333,
        "lon": 21.583333,
        "name": "Miko\u0142ajki",
        "teryt": "2810"
    },
    "12270": {
        "lat": 53.1,
        "lon": 20.366667,
        "name": "M\u0142awa",
        "teryt": "1413"
    },
    "12660": {
        "lat": 49.633333,
        "lon": 20.683333,
        "name": "Nowy S\u0105cz",
        "teryt": "1262"
    },
    "12530": {
        "lat": 50.633333,
        "lon": 17.966667,
        "name": "Opole",
        "teryt": "1661"
    },
    "12285": {
        "lat": 53.183333,
        "lon": 21.55,
        "name": "Ostro\u0142\u0119ka",
        "teryt": "1461"
    },
    "12230": {
        "lat": 53.133333,
        "lon": 16.75,
        "name": "Pi\u0142a",
        "teryt": "3019"
    },
    "12360": {
        "lat": 52.55,
        "lon": 19.7,
        "name": "P\u0142ock",
        "teryt": "1462"
    },
    "12330": {
        "lat": 52.416667,
        "lon": 16.833333,
        "name": "Pozna\u0144",
        "teryt": "3064"
    },
    "12695": {
        "lat": 49.633333,
        "lon": 22.95,
        "name": "Przemy\u015bl",
        "teryt": "1862"
    },
    "12540": {
        "lat": 50.066667,
        "lon": 18.183333,
        "name": "Racib\u00f3rz",
        "teryt": "2411"
    },
    "12210": {
        "lat": 53.733333,
        "lon": 15.833333,
        "name": "Resko",
        "teryt": "3218"
    },
    "12580": {
        "lat": 50.116667,
        "lon": 22.0,
        "name": "Rzesz\u00f3w",
        "teryt": "1863"
    },
    "12585": {
        "lat": 50.683333,
        "lon": 21.65,
        "name": "Sandomierz",
        "teryt": "2609"
    },
    "12385": {
        "lat": 52.166667,
        "lon": 22.283333,
        "name": "Siedlce",
        "teryt": "1464"
    },
    "12310": {
        "lat": 52.35,
        "lon": 14.616667,
        "name": "S\u0142ubice",
        "teryt": "0805"
    },
    "12469": {
        "lat": 51.35,
        "lon": 19.866667,
        "name": "Sulej\u00f3w",
        "teryt": "1010"
    },
    "12195": {
        "lat": 54.133333,
        "lon": 22.95,
        "name": "Suwa\u0142ki",
        "teryt": "2063"
    },
    "12205": {
        "lat": 53.4,
        "lon": 14.55,
        "name": "Szczecin",
        "teryt": "3262"
    },
    "12215": {
        "lat": 53.7,
        "lon": 16.7,
        "name": "Szczecinek",
        "teryt": "3215"
    },
    "12200": {
        "lat": 53.916667,
        "lon": 14.25,
        "name": "\u015awinouj\u015bcie",
        "teryt": "3263"
    },
    "12575": {
        "lat": 50.033333,
        "lon": 20.983333,
        "name": "Tarn\u00f3w",
        "teryt": "1263"
    },
    "12399": {
        "lat": 52.083333,
        "lon": 23.616667,
        "name": "Terespol",
        "teryt": "0601"
    },
    "12250": {
        "lat": 53.05,
        "lon": 18.6,
        "name": "Toru\u0144",
        "teryt": "0463"
    },
    "12115": {
        "lat": 54.583333,
        "lon": 16.866667,
        "name": "Ustka",
        "teryt": "2212"
    },
    "12375": {
        "lat": 52.166667,
        "lon": 21.0,
        "name": "Warszawa",
        "teryt": "1465"
    },
    "12455": {
        "lat": 51.216667,
        "lon": 18.566667,
        "name": "Wielu\u0144",
        "teryt": "1017"
    },
    "12497": {
        "lat": 51.55,
        "lon": 23.533333,
        "name": "W\u0142odawa",
        "teryt": "0619"
    },
    "12424": {
        "lat": 51.1,
        "lon": 16.9,
        "name": "Wroc\u0142aw",
        "teryt": "0264"
    },
    "12625": {
        "lat": 49.3,
        "lon": 19.95,
        "name": "Zakopane",
        "teryt": "1217"
    },
    "12595": {
        "lat": 50.683333,
        "lon": 23.2,
        "name": "Zamo\u015b\u0107",
        "teryt": "0664"
    },
    "12400": {
        "lat": 51.933333,
        "lon": 15.516667,
        "name": "Zielona G\u00f3ra",
        "teryt": "0862"
    }
}
